City_ID,City,Country,Max Temp,Current Weather,Lat,Long,Hotel Name
0,Los Llanos De Aridane,ES,66.2,broken clouds,28.6585,-17.9182,Valle Aridane
1,Ushuaia,AR,51.8,few clouds,-54.8,-68.3,Albatros Hotel
2,Marin,US,50.0,overcast clouds,38.0666,-122.7344,Danehill Manor
4,Mataura,NZ,48.0,scattered clouds,-46.1927,168.8643,Ellie's Villa
7,Mar Del Plata,AR,64.4,overcast clouds,-38.0023,-57.5575,Gran Hotel Mar del Plata
10,Penzance,GB,50.0,overcast clouds,50.1186,-5.5371,Artist Residence Penzance
12,Portland,US,45.0,overcast clouds,45.5234,-122.6762,Embassy Suites by Hilton Portland Downtown
13,Dehloran,IR,52.97,clear sky,32.6941,47.2679,کافه گیم استورم
15,Severo-Kurilsk,RU,23.54,snow,50.6789,156.125,Kak Doma
16,Merritt Island,US,71.6,broken clouds,28.5392,-80.672,
17,Bredasdorp,ZA,71.01,clear sky,-34.5322,20.0403,Bredasdorp Country Manor
18,Vaini,TO,73.4,light rain,-21.2,-175.2,Keleti Beach Resort
23,Vestmannaeyjar,IS,32.0,broken clouds,63.4427,-20.2734,Glamping & Camping
25,Northam,GB,42.01,light rain,51.0333,-4.2167,Durrant House Hotel
26,Hilo,US,66.2,moderate rain,19.7297,-155.09,Hilo Hawaiian Hotel
28,Ruidoso,US,37.4,clear sky,33.3317,-105.67299999999999,Inn of the Mountain Gods
29,Port Elizabeth,ZA,69.8,clear sky,-33.918,25.5701,39 On Nile Guest House
30,Kodiak,US,32.0,clear sky,57.79,-152.4072,Best Western Kodiak Inn and Convention Center
31,Oxbow,CA,19.99,overcast clouds,49.2333,-102.1676,Bow Manor Motor Hotel
33,Punta Arenas,CL,57.2,scattered clouds,-53.15,-70.9167,Hotel Dreams Del Estrecho
34,Jijiga,ET,64.67,clear sky,9.35,42.8,RAMAAS HOTEL
36,Ponta Do Sol,PT,64.0,scattered clouds,32.6667,-17.1,Hotel do Campo
37,Mayna,RU,20.5,scattered clouds,54.1135,47.6231,Gostinnitsa
44,Narsaq,GL,41.0,broken clouds,60.9167,-46.05,Hotel Narsaq
45,Kashi,CN,24.8,clear sky,39.4547,75.9797,帕米尔青年旅舍
47,New Norfolk,AU,53.01,clear sky,-42.7826,147.0587,The Shingles Riverside Cottages
48,Albany,US,17.01,clear sky,42.6001,-73.9662,
49,Lagoa,PT,62.37,clear sky,39.05,-27.9833,Casa Das Faias
50,Hermanus,ZA,71.01,clear sky,-34.4187,19.2345,Misty Waves Boutique Hotel
51,Shimoda,JP,35.01,clear sky,34.6667,138.95,Shimoda Tokyu Hotel
52,Jamestown,US,25.0,light snow,42.097,-79.2353,Hampton Inn & Suites Jamestown
54,East London,ZA,73.4,scattered clouds,-33.0153,27.9116,Tu Casa
55,Consett,GB,36.0,overcast clouds,54.854,-1.8316,Derwent Manor Hotel BW Premier Collection
58,Makakilo City,US,71.6,light rain,21.3469,-158.0858,Marriott's Ko Olina Beach Club
61,Nhlangano,SZ,69.42,moderate rain,-27.1167,31.2,Nhlangano BnB
64,Vinh,VN,65.25,overcast clouds,18.6667,105.6667,Hotels Shanghai
65,Nikolskoye,RU,28.0,light snow,59.7035,30.7861,Tourist House - Sablino
68,Port Alfred,ZA,69.01,clear sky,-33.5906,26.891,The Halyards Hotel
69,Skegness,GB,37.4,broken clouds,53.1436,0.3363,The Royal Hotel
70,Codrington,AU,55.89,few clouds,-38.2667,141.9667,Codrington Gardens Bed And Breakfast
71,Rawa Mazowiecka,PL,30.0,overcast clouds,51.7644,20.2549,Obiekt Tatar - Usługi hotelarskie
72,Hobart,AU,53.01,clear sky,-42.8794,147.3294,St Ives Hobart Accommodation Tasmania
74,Yumen,CN,24.51,clear sky,40.2833,97.2,
75,Yamada,JP,25.0,clear sky,39.4667,141.95,Iroha-ya Inn
77,Shiyan,CN,47.17,broken clouds,32.6475,110.7781,Fenghuang Garden Holiday Hotel
79,Ancud,CL,66.2,clear sky,-41.8697,-73.8203,Hotel Arena Gruesa
80,Esperance,AU,59.0,clear sky,-33.8667,121.9,Hospitality Esperance
82,Bluff,NZ,48.0,broken clouds,-46.6,168.3333,Bluff Homestead - Guesthouse & Campervan Park
85,Port Lincoln,AU,59.63,clear sky,-34.7333,135.8667,Port Lincoln Hotel
90,Thompson,CA,12.2,light snow,55.7435,-97.8558,Burntwood Hotel
91,Lompoc,US,48.0,clear sky,34.6391,-120.4579,Holiday Inn Express Lompoc
94,Olafsvik,IS,23.52,scattered clouds,64.8945,-23.7142,Hotel Olafsvik
96,Airai,TL,61.68,overcast clouds,-8.9266,125.4092,Juvinal Martin
100,Kapaa,US,71.6,moderate rain,22.0752,-159.319,Sheraton Kauai Resort at Coconut Beach
101,Ninotsminda,GE,24.8,few clouds,41.2646,43.5916,Hotel - Ninotsminda
102,Castro,BR,72.63,overcast clouds,-24.7911,-50.0119,CHACARA BAILLY
103,Bethel,US,21.99,clear sky,41.3712,-73.414,Courtyard by Marriott Danbury
106,Busselton,AU,68.0,clear sky,-33.65,115.3333,Observatory Guest House
107,Faya,SA,60.8,clear sky,18.3851,42.4509,مقبرة ال مجمل
111,New York,US,28.4,clear sky,40.7143,-74.006,Hotel Pennsylvania
113,Bemidji,US,26.01,overcast clouds,47.4736,-94.8803,Hampton Inn & Suites Bemidji
114,Tuatapere,NZ,48.0,broken clouds,-46.1333,167.6833,Ron and Tony's Bed & Breakfast
116,Laredo,US,71.6,few clouds,27.5064,-99.5075,La Quinta Inn by Wyndham Laredo I-35
117,Ketchikan,US,35.6,light rain,55.3422,-131.6461,Snows Cove Lodge
118,Ozinki,RU,23.27,overcast clouds,51.1786,49.6769,at Rest
119,Ribeira Grande,PT,64.4,broken clouds,38.5167,-28.7,Quinta da Meia Eira
120,Avera,US,50.0,clear sky,33.194,-82.5271,
121,Rockland,US,26.01,clear sky,41.1668,-74.0496,National Camp Association
122,Ilulissat,GL,3.2,scattered clouds,69.2167,-51.1,Hotel Arctic
124,Nevelsk,RU,10.4,broken clouds,46.6733,141.8633,Gostinitsa Viktoriya
125,Yabrud,SY,44.6,broken clouds,33.9674,36.6574,صالون مها حيدر - Salon Maha
126,Lerik,AZ,44.6,overcast clouds,38.7726,48.4128,Hotel Lerik
127,Mut,TR,46.76,moderate rain,36.6439,33.4389,Konak Otel
129,Linjiang,CN,1.47,few clouds,41.8069,126.9078,Mingmen Business Hotel
130,San Quintin,MX,57.83,clear sky,30.4833,-115.95,Old Mill Hotel
131,Castrillon,ES,51.8,scattered clouds,43.3979,-6.7922,HR PALACIO DE PRELO 4 estrellas
132,Den Helder,NL,33.01,overcast clouds,52.9599,4.7593,Hotel Den Helder
133,Laguna,US,48.99,overcast clouds,38.421,-121.4238,Holiday Inn Express & Suites Elk Grove Central - Hwy 99
134,Kaitangata,NZ,45.0,few clouds,-46.2817,169.8464,Kaitangata Motor Camp
136,Ploemeur,FR,51.8,light rain,47.7333,-3.4333,Best Western Plus Hotel Les Rives Du Ter
139,Amboise,FR,51.01,overcast clouds,47.4125,0.9827,Hotel Amboise Le Blason
142,Tasiilaq,GL,15.8,broken clouds,65.6145,-37.6368,The Red House
143,Te Anau,NZ,43.03,broken clouds,-45.4167,167.7167,Kingsgate Hotel Te Anau
144,Nemuro,JP,22.05,overcast clouds,43.3236,145.575,Hotel Nemuro Kaiyoutei
146,Katsuura,JP,41.0,few clouds,35.1333,140.3,Katsuura Hotel Mikazuki
148,La Rioja,ES,41.0,few clouds,42.25,-2.5,Casa Concejos
150,Neka,IR,50.65,broken clouds,36.6508,53.299,اپارتمان قومش
151,Kruisfontein,ZA,71.01,clear sky,-34.0033,24.7314,Oyster Bay House Rental
152,Basco,PH,69.87,scattered clouds,20.4487,121.9702,Nathaniel's Lodge
154,Juan Lacaze,UY,71.6,moderate rain,-34.4342,-57.4381,Posada Agreste
155,Wilmington,US,43.0,clear sky,34.2257,-77.9447,"Hotel Ballast Wilmington, Tapestry Collection by Hilton"
160,Marsh Harbour,BS,65.62,broken clouds,26.5412,-77.0636,Abaco Beach Resort
161,Awbari,LY,61.72,clear sky,26.5921,12.7805,فندق أوباري
162,Hobara,JP,28.99,light snow,37.8167,140.55,高子荘
164,Juegang,CN,48.99,overcast clouds,32.3174,121.1855,Rudong Y Hotel
166,Kenai,US,16.0,clear sky,60.5544,-151.2583,Aspen Extended Stay Suites
170,Sur,OM,67.6,clear sky,22.5667,59.5289,Sur Plaza Hotel
171,Qui Nhon,VN,72.12,scattered clouds,13.7667,109.2333,Khách sạn Hải Âu Quy Nhơn - Seagull Hotel
175,Saint Anthony,US,30.99,light snow,45.0205,-93.21799999999999,Holiday Inn Express Roseville-St. Paul
176,Pinyug,RU,25.68,light snow,60.251000000000005,47.7842,
177,Sinalunga,IT,54.0,overcast clouds,43.2152,11.7495,I Girasoli
179,Karpathos,GR,64.4,few clouds,35.507,27.2132,Alex
180,Barcelos,PT,55.4,scattered clouds,41.5388,-8.6151,Hotel Do Terço
181,Sitka,US,37.4,broken clouds,57.0531,-135.33,Westmark Sitka
182,Paamiut,GL,31.15,overcast clouds,61.994,-49.6678,Yeet Hotel
183,Broome,US,19.0,light snow,42.2506,-75.833,Chenango Valley State Park
187,Mayo,US,35.01,clear sky,38.8876,-76.5119,Resorts Resource Group International
188,Lianran,CN,50.0,clear sky,24.9227,102.485,Jinzhouwan Hotel
190,Carndonagh,IE,37.99,overcast clouds,55.25,-7.2667,Tigín Tuí
191,Goderich,CA,26.6,overcast clouds,43.7501,-81.7165,Harmony Inn
196,Saint-Francois,FR,51.8,overcast clouds,46.4154,3.9054,Manoir Du Bonheur
199,Pangkalanbuun,ID,74.5,overcast clouds,-2.6833,111.6167,Grand Kecubung Hotel
200,Cabo San Lucas,MX,73.99,clear sky,22.8909,-109.9124,Hotel Tesoro Los Cabos
202,Cockburn Town,TC,72.36,scattered clouds,21.4612,-71.1419,Osprey Beach Hotel
206,Saldanha,ZA,67.3,clear sky,-33.0117,17.9442,Blue Bay Lodge
212,Grindavik,IS,26.6,scattered clouds,63.8424,-22.4338,Northern Light Inn & Max's Restaurant
215,San Fernando,PH,68.0,broken clouds,15.0286,120.6898,Maharlika Hostel
217,Naze,JP,51.26,clear sky,28.3667,129.4833,奄美ポートタワーホテル
218,Marsala,IT,57.2,scattered clouds,37.7966,12.4352,Villa Favorita Hotel e Resort
220,Monterey,US,45.0,broken clouds,36.2505,-121.2516,
221,Mecca,SA,71.08,clear sky,21.4267,39.8261,"Makkah Clock Royal Tower, A Fairmont Hotel"
223,Lahan,NP,53.78,clear sky,26.7296,86.4951,Hotel Durbar Pvt. Ltd.
224,La Ronge,CA,8.6,broken clouds,55.1001,-105.2842,Northland Motor Hotel
227,Ajaccio,FR,57.2,moderate rain,42.0,8.9167,Sole E Monte
229,Torbay,CA,30.99,overcast clouds,47.6666,-52.7314,Gallows Cove
231,Palmer,US,21.0,few clouds,42.1584,-72.3287,Wedgewood Motel
232,Otane,NZ,46.99,clear sky,-39.8833,176.6333,Ludlow Farmstay
233,Ponta Delgada,PT,64.99,scattered clouds,37.7333,-25.6667,Vila Nova Hotel
234,Qazax,AZ,42.75,broken clouds,41.0933,45.3661,Hotel Gazah Azpetrol
235,Sarakhs,IR,59.0,clear sky,36.5449,61.1577,مهمان سرای شرکت گاز
239,Fort-Shevchenko,KZ,36.68,overcast clouds,44.5086,50.263000000000005,Oasis hotel Bautino
241,Ostrovnoy,RU,11.64,light snow,68.0531,39.5131,
243,Vytegra,RU,21.9,overcast clouds,61.0064,36.4481,Wardenclyffe Volgo&Balt
244,Sept-Iles,CA,18.0,few clouds,50.2001,-66.3821,Comfort Inn
245,Palora,EC,71.6,light rain,-1.7,-77.9333,Rancho grande
246,Gazli,UZ,52.25,overcast clouds,40.1333,63.45,
247,Gornyak,RU,8.26,clear sky,50.9942,81.4661,Komfort
248,Ahipara,NZ,55.22,clear sky,-35.1667,173.1667,Ahipara Holiday Park
249,Coquimbo,CL,68.0,few clouds,-29.9533,-71.3436,Hotel San Juan
251,Rio Gallegos,AR,64.4,broken clouds,-51.6226,-69.2181,Hotel Santa Cruz
252,Lebu,CL,62.31,clear sky,-37.6167,-73.65,Hostal Las Lilas
255,Nago,JP,59.0,broken clouds,26.5881,127.9761,Hotel Yugaf Inn Okinawa
257,Key Largo,US,71.01,scattered clouds,25.0865,-80.4473,Bayside Inn Key Largo
259,Sonthofen,DE,37.99,light rain,47.5167,10.2833,Allgäu Stern Hotel - Sonthofen
261,Buraydah,SA,57.2,clear sky,26.326,43.975,Mövenpick Hotel Qassim
263,Riyadh,SA,62.6,clear sky,24.6877,46.7219,InterContinental Riyadh
264,Victoria,HK,62.01,clear sky,22.2855,114.1577,Mini Hotel Central
265,Nalut,LY,62.22,clear sky,30.3333,10.85,
266,Soe,ID,68.25,overcast clouds,-9.8607,124.28399999999999,Dena Hotel
268,Curup,ID,67.82,overcast clouds,-3.4667,102.5333,Ayi The Costel
269,Samarkand,UZ,53.6,scattered clouds,39.6542,66.9597,Ideal Hotel
270,Siniscola,IT,62.6,few clouds,40.5719,9.6922,Hotel Sa Tanca E Bore
272,Kahului,US,68.0,light rain,20.8947,-156.47,Maui Seaside Hotel
274,Dingle,PH,71.74,overcast clouds,10.9995,122.6711,SEGAYA PROPERTY
275,Casablanca,MA,60.8,broken clouds,33.5928,-7.6192,فندق البيت المغربي كازبلانكا
276,Nuuk,GL,21.2,few clouds,64.1835,-51.7216,Vandrehuset
279,Salalah,OM,73.4,few clouds,17.0151,54.0924,HAMDAN PLAZA HOTEL SALALAH
280,Vardo,NO,30.2,light snow,70.3705,31.1107,Vardø Hotel AS
282,Christchurch,NZ,55.99,clear sky,-43.5333,172.6333,"Chateau on the Park - Christchurch, a DoubleTree by Hilton"
283,Tonk,IN,54.46,clear sky,26.1667,75.7833,Hotel Sheetal
284,Sioux Lookout,CA,21.2,light snow,50.1001,-91.917,Knobby's Fly-In Camps
285,Muroto,JP,46.92,clear sky,33.2833,134.15,Oota Ryokan
286,Lakeway,US,66.99,overcast clouds,30.3638,-97.9796,Lakeway Resort and Spa
288,Manbij,SY,41.0,overcast clouds,36.5281,37.9549,Manbej City Hotel
289,Aksu,CN,21.54,clear sky,41.1231,80.2644,Pudong Holiday Hotel
292,Muscat,OM,66.2,clear sky,23.6139,58.5922,Mutrah Hotel
295,Rock Sound,BS,68.09,overcast clouds,24.9,-76.2,Rock Sound Club
297,Fortuna,US,50.0,overcast clouds,40.5982,-124.1573,Super 8 by Wyndham Fortuna
298,Hovd,MN,12.13,clear sky,48.0056,91.6419,Buyant Hotel
299,Qasigiannguit,GL,3.2,scattered clouds,68.8193,-51.1922,Hotel Discobay
300,Eston,CA,1.99,mist,51.1501,-108.7514,Hearthside Place B&B
301,Hofn,IS,23.27,overcast clouds,64.2539,-15.2082,Hótel Höfn
302,Miles City,US,26.6,light snow,46.4083,-105.8406,FairBridge Inn & Suites Miles City
305,Gonzalez,US,64.4,clear sky,30.5816,-87.2914,Motel Air Inc
306,Svetlogorsk,BY,23.02,light snow,52.6333,29.7333,Hotel Svetlogorsk JBIK
307,Rabo De Peixe,PT,64.99,scattered clouds,37.8,-25.5833,Quinta das Giestas
308,Dongsheng,CN,21.25,clear sky,39.8161,109.9776,Crowne Plaza Ordos
309,Jiazi,CN,56.01,clear sky,22.8779,116.06700000000001,Hotel Jin Hao
310,Asau,RO,39.2,clear sky,46.4333,26.4,Casa Mika Ciobanus
312,Brae,GB,33.8,scattered clouds,60.3964,-1.3530000000000002,Busta House Hotel
313,Santa Lucia,ES,69.01,scattered clouds,27.9117,-15.5407,Las Tirajanas
317,Dali,CN,44.11,clear sky,25.7,100.1833,Dali Travelling With Hostel
322,Warrington,GB,39.99,few clouds,53.3925,-2.5802,Villaggio Hotel
325,Mount Gambier,AU,53.6,clear sky,-37.8333,140.7667,Commodore on the Park
326,Hojai,IN,64.51,overcast clouds,26.0,92.8667,Luxury park hotel
327,Iquique,CL,73.4,clear sky,-20.2208,-70.1431,Backpacker`s Hostel Iquique
328,Antofagasta,CL,73.99,few clouds,-23.65,-70.4,Holiday Inn Express Antofagasta
329,Otradnoye,RU,28.0,snow,59.7775,30.8181,Baza otdikha Petrushinsky Khutor
333,Kamenka,RU,34.0,overcast clouds,51.3223,42.7678,
335,Altamont,US,35.6,overcast clouds,42.2068,-121.7372,Microtel Inn & Suites by Wyndham Klamath Falls
336,Talkha,EG,56.35,clear sky,31.0539,31.3779,Almadiafah
340,Iberia,US,68.0,overcast clouds,29.9502,-91.7507,back to back rv park
341,Fernie,CA,32.0,light snow,49.5,-115.0687,Fernie Stanford Resort
342,Beyneu,KZ,33.39,broken clouds,45.3167,55.2,NUR
344,Klaksvik,FO,35.6,broken clouds,62.2266,-6.5889999999999995,Airbnb rooms
345,Sailana,IN,58.35,clear sky,23.4667,74.9167,Krishna Marriage Garden Sailana
347,Esna,EG,66.2,clear sky,25.2934,32.554,Orient Star Dahabyia Isna 05 Nights Each Sunday
348,Lexington Park,US,37.4,clear sky,38.2668,-76.4538,TownePlace Suites by Marriott Lexington Park Patuxent River Naval Air Station
352,Guerrero Negro,MX,61.14,clear sky,27.9769,-114.0611,"Casa Laguna, Bed & Breakfast"
353,Marawi,PH,66.54,overcast clouds,7.9986,124.2928,Derogongan Residence
355,Gweru,ZW,68.65,moderate rain,-19.45,29.8167,Suskwe Lodges
362,Muros,ES,55.99,overcast clouds,42.7762,-9.0603,Apartment Av. Castelao
363,Nanortalik,GL,36.12,overcast clouds,60.1432,-45.2371,Hotel Kap Farvel
365,Katobu,ID,74.82,overcast clouds,-4.9408,122.5276,La Ode Husein
368,Dordrecht,NL,36.0,overcast clouds,51.81,4.6736,Bastion Hotel Dordrecht - Papendrecht
370,Sayyan,YE,55.09,few clouds,15.1718,44.3244,متنزه و بحيرة سيان
372,Rawson,AR,66.22,clear sky,-43.3002,-65.1023,Hosteria Sampedro
373,Rodeo,US,48.99,overcast clouds,38.033,-122.2669,Captain's Cottage
374,Tahta,EG,64.4,clear sky,26.7693,31.5021,El Salam Hotel
376,Votkinsk,RU,27.0,snow,57.0486,53.9872,Tsentralniy Hotel
380,Saint George,US,39.99,clear sky,37.1041,-113.5841,Best Western Plus Abbey Inn
381,Lingao,CN,64.26,clear sky,19.9103,109.6859,Lingao Ditai Inn
382,Skibbereen,IE,41.0,broken clouds,51.55,-9.2667,The West Cork Hotel
384,Komsomolskiy,UZ,41.0,overcast clouds,40.4272,71.7189,Ikathouse
386,La Vergne,US,46.99,overcast clouds,36.0156,-86.5819,Fairfield Inn & Suites by Marriott Nashville Smyrna
387,Terralba,IT,59.0,scattered clouds,39.7192,8.6392,B&B Neverland
388,Gushikawa,JP,59.0,broken clouds,26.3544,127.8686,Kirari Guest House
392,Dunedin,NZ,54.0,scattered clouds,-45.8742,170.5036,Scenic Hotel Southern Cross
393,Yuancheng,CN,28.81,overcast clouds,36.652,107.7896,
395,Hamilton,US,34.0,overcast clouds,39.1834,-84.5333,Six Acres Bed & Breakfast
396,Canberra,AU,66.2,overcast clouds,-35.2835,149.1281,Novotel Canberra
397,Maarianhamina,AX,28.4,overcast clouds,60.0973,19.9348,Park Alandia Hotel
401,Jumla,NP,31.37,clear sky,29.2747,82.1838,"अन्नी घर, जुम्ला - Anni Ghar"
404,Urumqi,CN,3.2,fog,43.801,87.6005,Hua Ling Grand Hotel Urumqi
406,Hasaki,JP,26.6,few clouds,35.7333,140.8333,Inubosaki Kanko Hotel
407,Blagoveshchenka,RU,6.96,clear sky,52.8333,79.8667,"Gostinitsa ""Tsentral'naya"""
408,Dongzhen,CN,60.04,clear sky,22.3797,110.9389,茂名中汇时尚酒店
411,Oktyabrskoye,RU,37.4,broken clouds,43.0645,44.7417,Prolesok Mini-hotel
412,Kuandian,CN,6.73,few clouds,40.7286,124.7847,Hi Inn Dandong Kuandian Ji Xian Garden
413,Dargaville,NZ,52.72,clear sky,-35.9333,173.8833,Parkview Motel
415,Verkhnyaya Inta,RU,0.9,overcast clouds,65.9811,60.3094,
416,Erzin,TR,48.99,light rain,36.9559,36.2,Artemis Otel
417,Omidiyeh,IR,55.4,clear sky,30.7597,49.705,Royal Complex
419,Bilma,NE,68.74,scattered clouds,18.6853,12.9164,Expeditions Ténére voyages
421,Garmsar,IR,50.81,broken clouds,35.2182,52.3409,Peyvand Hotel
422,Kamyaran,IR,35.6,few clouds,34.7956,46.9355,Mobile Adab موبایل ادب
426,Hammel,DK,30.99,scattered clouds,56.2576,9.8632,Restaurant Pøt Mølle - Frijsenborg Slotskro
427,Don Benito,ES,55.0,overcast clouds,38.9563,-5.8616,Hotel Veracruz
429,Peniche,PT,57.99,broken clouds,39.3558,-9.3811,Hotel Star inn Peniche
430,Plettenberg Bay,ZA,70.05,clear sky,-34.0527,23.3716,Thanda Vista B&B
431,Hami,CN,22.19,clear sky,42.8,93.45,Laoyutang Resort
432,Westport,US,25.0,clear sky,41.1415,-73.3579,Norwalk Inn
433,Roma,US,12.99,overcast clouds,43.2128,-75.4557,Wingate By Wyndham Rome
434,Huescar,ES,53.01,scattered clouds,37.811,-2.5412,Hotel El Maño
435,Lata,PT,55.99,overcast clouds,40.1629,-8.3327,Casa Maquia
442,Susangerd,IR,59.0,clear sky,31.5608,48.1831,دفتر خدمات هوایی وجهانگردی نسیم گستر دشت آزادگان
443,Marathon,US,30.99,light snow,44.9,-89.7668,
445,Sucua,EC,69.8,light rain,-2.4667,-78.1667,Hotel Barza
446,Taman,RU,44.6,overcast clouds,45.2117,36.7161,Staryy Gorod G. Taman
449,Kamaishi,JP,27.05,clear sky,39.2667,141.8833,Hotel Route Inn Kamaishi
450,Sasina,BA,46.4,clear sky,44.7987,16.739,
451,Patitirion,GR,57.2,few clouds,39.15,23.8667,Pension Votsi
453,Erenhot,CN,15.04,clear sky,43.6475,111.9767,Erenhot Rurouni Youth Hostel
457,Jobat,IN,65.82,clear sky,22.4167,74.5667,Sandeep john's house
459,Rensvik,NO,32.0,snow,63.1,7.8167,Thon Hotels Storgata
463,Heishan,CN,9.19,overcast clouds,41.6892,122.1128,Heishan Hotel
464,Sydney,AU,72.0,scattered clouds,-33.8679,151.2073,The Grace Sydney
465,Gazojak,TM,46.29,overcast clouds,41.1875,61.4036,
466,Mehamn,NO,26.04,light snow,71.0357,27.8492,Mehamn Arctic Hotel AS
468,Tongren,CN,48.27,overcast clouds,27.7172,109.1853,Fanjing Mountain International Conference Center
471,Gorontalo,ID,73.85,broken clouds,0.5412,123.0595,Maqna Hotel by Prasanthi
473,Miraflores,MX,66.2,scattered clouds,19.2167,-98.8083,Hotel Mansión
474,Gat,IL,55.0,clear sky,31.61,34.7642,OlusHome
475,Kalat,PK,48.58,clear sky,29.0225,66.5916,PHE Rest House
476,Springbok,ZA,73.76,clear sky,-29.6643,17.8865,Undulata Country Lodge
477,Zonguldak,TR,38.21,overcast clouds,41.25,31.8333,Süleyman Tez Ev
478,Tabas,IR,60.51,overcast clouds,33.5959,56.9244,شرکت معماری مهراز شایگان آراد
479,Cam Ranh,VN,73.4,few clouds,11.9214,109.1591,OYO 598 Peony Hotel
480,Kitimat,CA,21.99,overcast clouds,54.0524,-128.6534,Kingfish Westcoast Adventures Ltd. Kitimat Estuary Lodge B&B
482,Warrnambool,AU,55.09,clear sky,-38.3833,142.4833,Lady Bay Resort
484,Russell,US,55.4,clear sky,32.3502,-85.1999,Macs
485,Vila Franca Do Campo,PT,64.99,scattered clouds,37.7167,-25.4333,Pestana Bahia Praia
486,Kingman,US,41.0,clear sky,35.1894,-114.053,Rodeway Inn Kingman Route 66
487,Kurbnesh,AL,48.2,clear sky,41.7797,20.0836,
488,Huilong,CN,51.01,light rain,31.8111,121.655,Hilton Garden Inn Qidong
491,Nushki,PK,60.39,clear sky,29.5542,66.0215,Jahangir Hotel Noshki
492,Praia Da Vitoria,PT,66.2,broken clouds,38.7333,-27.0667,Hotel Branco I
495,Wairoa,NZ,55.99,broken clouds,-39.0333,177.3667,Riverside Motor Camp
498,Arlington Heights,US,33.8,overcast clouds,42.0884,-87.9806,"Motel 6 Rolling Meadows, IL - Chicago Northwest"
499,Asyut,EG,62.6,clear sky,27.180999999999997,31.1837,Florence Hotel Assiut
501,Kemijarvi,FI,10.49,light snow,66.7131,27.4306,Hotelli Kemijärvi
502,Hirado,JP,42.01,broken clouds,33.3597,129.5531,Samson Hotel
503,Ravar,IR,61.18,clear sky,31.2656,56.8055,computertik
504,Saint-Denis,FR,52.0,broken clouds,48.9167,2.3333,Appart'City Paris Clichy Mairie - Appart Hôtel
507,Ephrata,US,30.99,clear sky,40.1798,-76.1788,Hampton Inn & Suites Ephrata - Mountain Springs
508,Brookings,US,26.6,mist,44.3114,-96.7984,Holiday Inn Express & Suites Brookings
509,Sijunjung,ID,72.48,overcast clouds,-0.6876,100.9537,Hotel Bukik Gadang
511,Ewa Beach,US,71.6,light rain,21.3156,-158.0072,Base Lodging
512,Dryden,CA,19.4,light snow,49.7833,-92.7503,Holiday Inn Express Dryden
516,Fairhope,US,64.0,clear sky,30.523000000000003,-87.9033,Hampton Inn Fairhope-Mobile Bay
518,Remontnoye,RU,35.6,few clouds,46.5614,43.6501,Remontnoye
520,Novikovo,RU,28.33,snow,51.1537,37.8879,
521,Darhan,MN,5.63,overcast clouds,49.4867,105.9228,Buudai Hotel
522,Agadez,NE,60.93,clear sky,19.75,10.25,
523,Malaya Vishera,RU,25.32,snow,58.8454,32.2222,"Seating House ""Nicholas"""
525,Tezu,IN,58.33,scattered clouds,27.9167,96.1667,Circuit House
526,Kadoma,JP,43.0,light rain,34.7333,135.5833,Hotel Agora Osaka Moriguchi
527,Shingu,JP,40.71,few clouds,33.7333,135.9833,Shingu UI Hotel
528,Zhangjiakou,CN,23.47,clear sky,40.81,114.8794,Shell Zhangjiakou City Qiaodong District Ginza Hotel
530,Sicuani,PE,58.75,broken clouds,-14.2694,-71.2261,Wilkamayu Hotel
532,Kungurtug,RU,0.27,scattered clouds,50.5994,97.5228,
533,Kutum,SD,66.16,clear sky,14.2,24.6667,Dibbo areaمنطقة دبو
534,Winsum,NL,30.0,broken clouds,53.33,6.5208,Tuinhuis
535,Novopokrovka,UA,33.8,moderate rain,49.8425,36.5477,Пудж дом
538,Raudeberg,NO,33.01,snow,61.9875,5.1352,Nordre Silda.
539,Nantucket,US,19.4,few clouds,41.2835,-70.0995,Jared Coffin House
541,Kampene,CD,74.44,light rain,-3.6,26.6667,
543,Berlevag,NO,25.77,light snow,70.8578,29.0864,Kvitbrakka
544,Red Deer,CA,1.4,clear sky,52.2668,-113.802,Holiday Inn Express Red Deer
546,Turayf,SA,48.2,clear sky,31.6725,38.6637,Swiss Spirit Hotel & Suites Turaif
547,Tucumcari,US,51.8,clear sky,35.1717,-103.725,Holiday Inn Express & Suites Tucumcari
556,Devarkonda,IN,72.97,few clouds,16.7,78.9333,VANAM ANJANEYULU
557,Whyalla,AU,66.2,overcast clouds,-33.0333,137.5833,Foreshore Motor Inn
558,Charters Towers,AU,72.91,overcast clouds,-20.1,146.2667,Cattleman's Rest Motor Inn
559,Comodoro Rivadavia,AR,64.4,few clouds,-45.8667,-67.5,Austral Hotel
560,Chern,RU,23.43,light snow,53.4523,36.9145,"Chern', Platina"
563,Loveland,US,48.99,clear sky,40.3978,-105.075,La Quinta Inn & Suites by Wyndham Loveland
566,Jhunjhunun,IN,53.8,clear sky,28.1307,75.4014,STARiHOTELS Jhunjhunu
567,Maloy,NO,33.01,snow,61.9353,5.1136,Torget Hotell
568,Ahuimanu,US,73.4,light rain,21.4447,-157.8378,Paradise Bay Resort
569,Phalodi,IN,57.47,clear sky,27.1333,72.3667,"HOTEL NEW GOLDEN PALACE , PHALODI"
570,Langres,FR,48.99,overcast clouds,47.8333,5.3333,Le Belvédère des Remparts
571,Valdivia,CL,71.6,clear sky,-39.8142,-73.2459,Hostal Entre Rios
572,Gravdal,NO,26.55,clear sky,68.1214,13.5031,Skreda Rorbusuiter
573,Mao,ES,57.2,scattered clouds,39.8885,4.2658,ARTIEM Capri
576,Yarmouth,US,19.99,broken clouds,41.7057,-70.2286,Blue Rock Resort
578,Kapit,MY,74.34,heavy intensity rain,2.0167,112.9333,Hotel Meligai Kapit
580,Pathein,MM,71.69,scattered clouds,16.7833,94.7333,Pathein Hotel
583,Anzio,IT,55.99,broken clouds,41.4853,12.6179,Hotel Lido Garda
584,Mizan Teferi,ET,68.94,broken clouds,6.9833,35.5833,Hotel Salayish | ሆቴል ሳላይሽ
585,Viseu,PT,50.0,overcast clouds,40.661,-7.9097,Montebelo Viseu Congress Hotel
586,Nigde,TR,29.21,light snow,37.8333,34.75,
587,Cervo,ES,54.0,broken clouds,43.6702,-7.4101,Hotel Spa Galatea
588,Seondha,IN,52.72,clear sky,26.1578,78.7797,रामोराम मंदिर (पं. लक्ष्मी कांत दीक्षित)
589,Rolla,US,39.99,moderate rain,37.9514,-91.7713,Holiday Inn Express & Suites Rolla - Univ of Missouri S&T
590,Taltal,CL,71.69,clear sky,-25.4,-70.4833,Residencial Karime
591,Linares,CL,60.91,overcast clouds,-35.85,-71.6,Hotel Real
592,Bahia Honda,CU,73.2,clear sky,22.9036,-83.1592,Casa Gualberto - Deysi
595,Coihaique,CL,66.2,few clouds,-45.5752,-72.0662,Diego De Almagro Coyhaique
596,Tornio,FI,14.0,light snow,65.8481,24.1466,Park Hotel Tornio
598,Masalli,KR,32.0,fog,34.7959,126.6553,영암펜션
600,Porto Walter,BR,72.43,overcast clouds,-8.2686,-72.7439,Secretaria de saúde
604,Margate,GB,41.0,overcast clouds,51.3813,1.3862,Premier Inn Margate hotel
607,Sobolevo,RU,21.33,light snow,54.4299,31.8996,
608,Groningen,NL,30.0,few clouds,53.25,6.75,Bed&Breakfast Lageland
609,Korla,CN,25.0,clear sky,41.7597,86.1469,Gulisitan Hotel
610,Oktyabrskiy,RU,24.69,overcast clouds,54.4815,53.471000000000004,Уязы-Тау гостиница
614,Janow Lubelski,PL,27.0,light snow,50.707,22.4104,Hotel Królewski
615,Mehran,IR,35.6,scattered clouds,33.1222,46.1646,بوتیک زنانه بهار
618,Comarapa,BO,68.36,broken clouds,-17.9,-64.4833,
619,Noumea,NC,68.0,scattered clouds,-22.2763,166.4572,Hôtel Le Lagon
620,Artyom,AZ,42.8,overcast clouds,40.4723,50.333,Merdan Respect
621,Chaiyaphum,TH,72.5,scattered clouds,15.75,102.0,BBM Grand Hotel
623,Hanzhong,CN,43.99,overcast clouds,33.0728,107.0303,Guorui Hotel
624,Chifeng,CN,1.67,scattered clouds,42.2683,118.9636,Junyu Tiancheng Hotel
626,Wanning,CN,68.2,scattered clouds,18.8003,110.3967,Paradise Hotel
628,Ilam,NP,46.94,clear sky,26.9167,87.9167,Chiyabari Cottage
630,Luancheng,CN,28.4,overcast clouds,37.8792,114.6517,Shell Hebei Shijiazhuang Luancheng Xinyuan Road Hotel
631,Talcahuano,CL,66.2,broken clouds,-36.7167,-73.1167,Hotel Terramar
632,Coos Bay,US,46.99,overcast clouds,43.3665,-124.2179,Best Western Holiday Hotel
633,Nakhon Phanom,TH,64.67,scattered clouds,17.3333,104.4167,ป่ายางรีสอร์ท
635,Catamarca,AR,72.0,broken clouds,-28.4696,-65.7852,Amerian Catamarca Park Hotel
638,Neuquen,AR,73.4,broken clouds,-38.9516,-68.0591,Hotel del Comahue
639,Yarensk,RU,26.4,light snow,62.1675,49.0916,Outskirts hotel
641,Lashio,MM,53.22,clear sky,22.9333,97.75,Hotel CF Lashio - Burmese Only
642,Suksun,RU,21.33,overcast clouds,57.1431,57.3949,«Колибри»
643,Kizukuri,JP,28.99,overcast clouds,40.8061,140.3861,Hotel memory
644,Ejea De Los Caballeros,ES,59.0,few clouds,42.1263,-1.1372,Hotel Ciudad De Ejea
648,Half Moon Bay,US,51.01,overcast clouds,37.4636,-122.4286,"The Ritz-Carlton, Half Moon Bay"
650,Kambove,CD,65.91,overcast clouds,-10.8764,26.5969,Couvant des soeurs catholiques
651,Whitianga,NZ,53.01,clear sky,-36.8333,175.7,Beachside Resort Whitianga
652,Husavik,IS,19.4,broken clouds,66.0449,-17.3389,Bjarnabúð
653,Zheleznodorozhnyy,RU,28.4,snow,55.7503,38.0042,Hotel Dali
654,Lukang,TW,59.0,mist,24.0567,120.4352,二鹿行館 Lu Kang Bed and Breakbast
655,Timmins,CA,1.4,broken clouds,48.4669,-81.3331,The Senator Hotel & Conference Centre
657,Zlobin,HR,48.99,broken clouds,45.2924,14.6541,Hotel Bitoraj Fuzine
659,Nelson Bay,AU,69.01,clear sky,-32.7167,152.15,Mantra Nelson Bay
660,Salamiyah,SY,50.11,overcast clouds,35.0113,37.0532,Gondolas Forum grandchildren and grandparents
661,Necochea,AR,69.01,overcast clouds,-38.5473,-58.7368,dyd -mar Hotel
662,Port Macquarie,AU,70.0,scattered clouds,-31.4333,152.9167,Rydges Port Macquarie
663,Shubarshi,KZ,17.94,broken clouds,48.5872,57.1869,
666,Gomba,HU,44.01,clear sky,47.3709,19.5306,Kmettyné Zakál Zsuzsa
668,Lidzbark Warminski,PL,24.75,overcast clouds,54.1259,20.5795,Hotel Krasicki
669,Kaiyuan,CN,51.17,clear sky,23.6977,103.3037,Dongqi Hotel
670,Krasnoarmeysk,RU,33.01,overcast clouds,51.0239,45.6969,"Hotel ""Your home-Balzer"""
671,Banff,CA,17.6,broken clouds,51.1762,-115.5698,Banff Aspen Lodge
672,Qaqortoq,GL,41.0,broken clouds,60.7167,-46.0333,Hotel Qaqortoq
674,Orange Cove,US,48.99,clear sky,36.6244,-119.3137,
675,Sakakah,SA,51.8,clear sky,29.9697,40.2064,Fakhamat Al Orjoana Apartment
676,Visby,SE,27.0,overcast clouds,57.6409,18.296,Best Western Solhem Hotel Visby
677,Tomari,RU,13.35,snow,47.7658,142.0683,Vostochnaya
678,Zirl,AT,41.0,light rain,47.3028,11.2745,Hotel Tyrolis
679,Flinders,AU,72.0,broken clouds,-34.5833,150.8552,Shellharbour Resort & Conference Centre
680,Jodhpur,IN,52.57,clear sky,26.2867,73.03,"Umaid Bhawan Palace, Jodhpur"
682,Shahrud,IR,42.91,overcast clouds,36.4182,54.9763,Royal Hotel
683,Escanaba,US,28.4,overcast clouds,45.7453,-87.0646,Sunset Lodge
684,Oxford,GB,37.4,overcast clouds,51.7522,-1.256,Malmaison Oxford
685,Poshtove,UA,50.0,broken clouds,44.8311,33.9545,Yayla Hotel
686,Samoylovka,RU,30.31,overcast clouds,51.184,43.7081,
687,Bosaso,SO,73.67,clear sky,11.2842,49.1816,Red Sea Hotel
688,Tromso,NO,19.0,clear sky,69.6496,18.957,"Radisson Blu Hotel, Tromsø"
689,Kapitanivka,UA,36.55,overcast clouds,48.9172,31.7167,
690,Minab,IR,71.6,scattered clouds,27.1467,57.0801,Bam campground
